City_ID,City,Lat,Lng,Max Temp,Humidity,Cloudiness,Wind Speed,Country,Date
0,sao gabriel da cachoeira,-0.1303,-67.0892,24.28,92,93,0.3,BR,1706325621
1,villa paula de sarmiento,-31.4933,-68.5384,30.7,28,99,10.42,AR,1706325623
2,faya-largeau,17.9257,19.1043,14.18,36,94,9.02,TD,1706325625
3,capinota,-17.7167,-66.2333,17.67,73,77,3.22,BO,1706325626
4,uturoa,-16.7333,-151.4333,28.38,74,50,3.45,PF,1706325627
5,tazacorte,28.629,-17.9293,22.3,18,0,3.58,ES,1706325627
6,grytviken,-54.2811,-36.5092,2.84,96,100,2.15,GS,1706325628
7,bilibino,68.0546,166.4372,-40.14,100,100,0.44,RU,1706325628
8,troitsko-pechorsk,62.7084,56.1964,-7.95,96,100,2.68,RU,1706325629
9,juegang,32.3174,121.1855,5.54,43,0,2.4,CN,1706325397
10,remontnoye,46.5614,43.6501,-0.74,94,100,2.86,RU,1706325629
11,ushuaia,-54.8,-68.3,10.81,76,0,12.35,AR,1706325424
12,yellowknife,62.456,-114.3525,-20.88,86,100,2.57,CA,1706325543
13,pucheng,27.9233,118.5333,3.24,87,100,0.39,CN,1706325631
14,susaki,33.3667,133.2833,12.04,39,0,0.81,JP,1706325631
15,constantia,44.1833,28.65,-0.62,75,54,3.9,RO,1706325632
16,luderitz,-26.6481,15.1594,19.09,75,0,3.04,NA,1706325632
17,port-aux-francais,-49.35,70.2167,7.37,91,100,14.82,TF,1706325633
18,edinburgh of the seven seas,-37.0676,-12.3116,17.04,85,27,6.8,SH,1706325634
19,blackmans bay,-43.0167,147.3167,21.07,60,35,7.39,AU,1706325635
20,puerto natales,-51.7236,-72.4875,7.95,69,74,5.93,CL,1706325636
21,westport,41.1415,-73.3579,6.46,88,100,2.06,US,1706325478
22,utrik,11.2278,169.8474,25.5,60,100,3.91,MH,1706325637
23,tiksi,71.6872,128.8694,-27.62,96,100,4.79,RU,1706325637
24,puerto ayora,-0.7393,-90.3518,25.86,96,46,0.45,EC,1706325637
25,klyuchi,52.2667,79.1667,-13.86,92,16,3.23,RU,1706325638
26,chonchi,-42.6128,-73.8092,16.29,93,100,1.09,CL,1706325638
27,geraldton,-28.7667,114.6,35.23,24,0,3.6,AU,1706325638
28,ploneour-lanvern,47.9,-4.2833,4.16,93,0,2.57,FR,1706325639
29,agra,27.1833,78.0167,7.03,100,37,1.03,IN,1706325639
30,adamstown,-25.066,-130.1015,24.57,71,100,2.81,PN,1706325639
31,waitangi,-43.9535,-176.5597,18.23,81,47,1.79,NZ,1706325640
32,lampang,18.3333,99.5,23.81,69,40,1.54,TH,1706325640
33,cabo san lucas,22.8909,-109.9124,21.95,69,0,1.03,MX,1706325220
34,rundu,-17.9333,19.7667,20.55,56,99,2.33,NA,1706325641
35,severobaykal'sk,55.65,109.3167,-14.72,85,84,0.86,RU,1706325394
36,guerrero negro,27.9769,-114.0611,19.47,51,100,1.47,MX,1706325641
37,colonia,50.9333,6.95,3.79,82,0,1.54,DE,1706325642
38,conduaga,8.862,117.4893,28.99,60,16,2.13,PH,1706325642
39,avarua,-21.2078,-159.775,29.03,84,40,2.06,CK,1706325643
40,kuta,-8.7233,115.1723,28.97,79,20,3.13,ID,1706325643
41,margate,51.3813,1.3862,4.27,79,92,0.89,GB,1706325644
42,kingscliff,-28.2667,153.5667,33.76,74,75,3.6,AU,1706325644
43,al qusayr,34.5091,36.5798,5.29,74,1,1.88,SY,1706325644
44,kone,-21.0595,164.8658,31.37,51,63,2.78,NC,1706325645
45,budva,42.2864,18.84,5.14,93,0,0.51,ME,1706325645
46,whitehorse,60.7161,-135.0538,-19.57,84,100,2.06,CA,1706325645
47,masterton,-40.9597,175.6575,22.83,49,76,6.49,NZ,1706325646
48,talnakh,69.4865,88.3972,-12.66,90,100,7.42,RU,1706325646
49,ballina,-28.8667,153.5667,29.32,79,99,3.91,AU,1706325646
50,ola,59.5833,151.2833,-18.81,78,100,3.36,RU,1706325647
51,nyurba,63.2842,118.3319,-35.97,99,100,1.2,RU,1706325647
52,el fasher,13.6279,25.3494,12.26,33,88,3.01,SD,1706325647
53,san nicolas de bari,22.7844,-81.9133,21.6,87,36,2.04,CU,1706325648
54,bodaybo,57.8506,114.1933,-21.53,95,99,1.16,RU,1706325648
55,saint-philippe,-21.3585,55.7679,25.77,88,68,3.68,RE,1706325648
56,portland,45.5234,-122.6762,10.16,94,100,10.29,US,1706325580
57,antsiranana,-12.2787,49.2917,23.42,94,20,2.06,MG,1706325649
58,saipan,15.1355,145.701,24.39,88,100,8.75,MP,1706325649
59,adler,43.43,39.92,4.09,80,75,5.0,RU,1706325650
60,thompson,55.7435,-97.8558,-5.91,100,100,2.57,CA,1706325650
61,muncar,-8.4333,114.3333,27.26,83,98,0.52,ID,1706325651
62,odda,60.0691,6.5457,7.65,99,100,3.56,NO,1706325651
63,taitung city,22.7583,121.1444,23.15,53,75,2.57,TW,1706325651
64,vila velha,-20.3297,-40.2925,24.97,90,75,4.02,BR,1706325652
65,bethel,41.3712,-73.414,5.76,87,100,0.82,US,1706325559
66,port elizabeth,-33.918,25.5701,21.17,91,40,4.12,ZA,1706325652
67,lihue,21.9789,-159.3672,26.77,55,0,6.17,US,1706325653
68,iqaluit,63.7506,-68.5145,-33.15,56,0,3.09,CA,1706325653
69,atafu village,-8.5421,-172.5159,29.55,71,100,4.07,TK,1706325653
70,stanley,54.868,-1.6985,6.27,88,75,4.12,GB,1706325654
71,inongo,-1.95,18.2667,24.47,72,89,1.27,CD,1706325654
72,askoy,60.4092,5.226,6.16,100,75,6.17,NO,1706325654
73,kodiak,57.79,-152.4072,-6.27,63,100,6.17,US,1706325655
74,velyka lepetykha,47.1757,33.9436,0.59,91,100,2.74,UA,1706325655
75,morehead city,34.7229,-76.726,18.9,89,100,5.14,US,1706325655
76,fayzabad,37.1166,70.58,3.99,54,100,4.47,AF,1706325656
77,lazaro cardenas,17.9583,-102.2,23.45,82,0,1.36,MX,1706325642
78,amahai,-3.3333,128.9167,31.08,57,100,0.9,ID,1706325656
79,kudahuvadhoo,2.6708,72.8944,27.95,65,100,7.29,MV,1706325657
80,hotan,37.0997,79.9269,-3.62,44,93,0.41,CN,1706325657
81,mankato,44.1636,-93.9994,2.75,97,100,1.54,US,1706325657
82,mahibadhoo,3.7833,72.9667,27.87,68,95,7.52,MV,1706325657
83,anan,33.9167,134.65,9.88,50,5,6.53,JP,1706325658
84,rio grande,-32.035,-52.0986,22.13,68,100,6.51,BR,1706325658
85,bangassou,4.7413,22.8184,18.31,43,46,1.33,CF,1706325658
86,bredasdorp,-34.5322,20.0403,18.87,91,45,1.77,ZA,1706325659
87,west island,-12.1568,96.8225,28.99,84,75,2.06,CC,1706325659
88,petropavlovsk-kamchatsky,53.0452,158.6483,-2.67,81,20,5.0,RU,1706325659
89,ketchikan,55.3422,-131.6461,9.26,93,100,9.77,US,1706325660
90,bermeo,43.4209,-2.7215,11.24,84,97,2.98,ES,1706325660
91,bikin,46.8161,134.26,-13.48,83,61,0.47,RU,1706325660
92,mangrol,21.1167,70.1167,19.57,43,97,5.46,IN,1706325661
93,hawaiian paradise park,19.5933,-154.9731,26.04,78,75,2.57,US,1706325552
94,new norfolk,-42.7826,147.0587,21.72,66,76,5.62,AU,1706325661
95,albany,42.6001,-73.9662,4.24,85,100,2.18,US,1706325529
96,mejit,10.2753,170.8646,25.37,70,100,4.57,MH,1706325662
97,lebu,-37.6167,-73.65,14.47,94,8,3.81,CL,1706325662
98,fort bragg,35.139,-79.006,19.9,89,0,0.0,US,1706325662
99,wajir,1.7471,40.0573,24.98,78,0,2.06,KE,1706325663
100,isafjordur,66.0755,-23.124,-3.13,86,83,4.88,IS,1706325615
101,san patricio,28.017,-97.5169,17.05,91,99,3.65,US,1706325664
102,newman,37.3138,-121.0208,14.6,85,100,0.89,US,1706325589
103,forster,-32.1667,152.5167,24.6,80,100,2.82,AU,1706325664
104,punta arenas,-53.15,-70.9167,9.06,66,0,10.8,CL,1706325664
105,baikonur,45.6167,63.3167,-10.3,74,89,5.06,KZ,1706325665
106,kirklareli,41.7351,27.2252,1.32,82,24,0.84,TR,1706325392
107,chanute,37.6792,-95.4572,4.06,87,100,3.6,US,1706325665
108,hasaki,35.7333,140.8333,9.22,42,4,1.04,JP,1706325666
109,meadow lakes,61.6247,-149.6011,-15.21,78,75,0.0,US,1706325666
110,nadym,65.5333,72.5167,-11.9,93,100,4.1,RU,1706325666
111,port mathurin,-19.6833,63.4167,27.7,81,100,2.12,MU,1706325667
112,baruun-urt,46.6806,113.2792,-20.22,88,5,4.51,MN,1706325667
113,jamestown,42.097,-79.2353,2.77,100,100,0.45,US,1706325652
114,flying fish cove,-10.4217,105.6791,28.82,69,100,2.06,CX,1706325668
115,chernyshevsk,52.5243,117.0174,-20.54,93,93,0.29,RU,1706325668
116,palm valley,30.1775,-81.3876,21.11,91,55,1.25,US,1706325668
117,vorgashor,67.5833,63.95,-12.42,96,97,3.03,RU,1706325669
118,bayindir,38.2174,27.6474,1.75,86,5,2.82,TR,1706325669
119,kargasok,59.0556,80.8572,-10.58,97,100,2.68,RU,1706325669
120,christchurch,-43.5333,172.6333,29.11,18,0,7.72,NZ,1706325606
121,fortuna,40.5982,-124.1573,16.19,75,40,8.23,US,1706325670
122,vernon,50.2581,-119.2691,3.34,86,100,1.03,CA,1706325619
123,papatowai,-46.5619,169.4708,17.76,53,42,6.87,NZ,1706325671
124,suntar,62.1444,117.6319,-37.37,99,100,0.87,RU,1706325671
125,yinchuan,38.4681,106.2731,-6.1,27,0,1.21,CN,1706325499
126,ribeira grande,38.5167,-28.7,17.1,96,100,6.71,PT,1706325672
127,tahe,52.3333,124.7333,-13.86,77,89,1.04,CN,1706325672
128,korla,41.7597,86.1469,-8.53,77,88,0.95,CN,1706325673
129,platteville,42.7342,-90.4785,2.3,99,100,0.0,US,1706325673
130,puerto lempira,15.2667,-83.7667,24.49,92,17,3.66,HN,1706325674
131,arkalyk,50.2486,66.9114,-19.83,100,100,4.2,KZ,1706325674
132,kapa'a,22.0752,-159.319,27.18,63,0,6.17,US,1706325675
133,greymouth,-42.4667,171.2,18.1,65,2,4.37,NZ,1706325675
134,tutoia,-2.7619,-42.2744,27.25,81,100,5.02,BR,1706325675
135,al jawf,29.5,38.75,8.21,63,2,4.59,SA,1706325676
136,quellon,-43.1167,-73.6167,15.09,87,100,2.17,CL,1706325676
137,yaren,-0.5472,166.916,27.66,80,100,9.58,NR,1706325676
138,ancud,-41.8697,-73.8203,15.2,98,100,2.47,CL,1706325677
139,invercargill,-46.4,168.35,17.23,70,47,4.92,NZ,1706325677
140,mossel bay,-34.1831,22.146,19.96,92,46,1.74,ZA,1706325678
141,ust-nera,64.5667,143.2,-37.8,96,65,0.16,RU,1706325678
142,weno,7.4515,151.8468,27.19,74,100,6.17,FM,1706325678
143,ponta delgada,37.7333,-25.6667,18.44,94,75,6.17,PT,1706325679
144,hamilton,39.1834,-84.5333,7.83,90,100,3.6,US,1706325164
145,hermanus,-34.4187,19.2345,19.89,90,31,2.96,ZA,1706325679
146,macapa,0.0389,-51.0664,25.99,94,0,2.57,BR,1706325474
147,oranjemund,-28.55,16.4333,17.5,92,1,2.01,NA,1706325680
148,flin flon,54.7682,-101.865,-11.72,99,73,1.73,CA,1706325680
149,kamaishi,39.2667,141.8833,5.42,49,41,3.85,JP,1706325681
150,dudinka,69.4058,86.1778,-12.4,91,100,9.39,RU,1706325681
151,tobelo,1.7284,128.0095,27.99,76,67,4.99,ID,1706325681
152,georgetown,5.4112,100.3354,31.08,64,20,3.6,MY,1706325664
153,chazuta,-6.5742,-76.1367,29.47,78,69,0.13,PE,1706325682
154,ribeira brava,32.65,-17.0667,20.62,25,95,3.47,PT,1706325682
155,karratha,-20.7377,116.8463,30.19,60,21,7.11,AU,1706325683
156,walvis bay,-22.9575,14.5053,18.94,100,0,4.12,NA,1706325683
157,saldanha,-33.0117,17.9442,17.03,95,100,2.12,ZA,1706325684
158,vadso,70.0744,29.7487,-2.91,86,100,9.26,NO,1706325684
159,la passe,45.5549,-0.8967,10.13,96,100,2.39,FR,1706325684
160,canatlan,24.5167,-104.7833,11.22,29,0,3.03,MX,1706325684
161,kavaratti,10.5669,72.642,27.22,69,5,3.85,IN,1706325685
162,college,64.8569,-147.8028,-36.03,51,40,1.54,US,1706325685
163,fale old settlement,-9.3852,-171.2468,29.96,64,100,3.04,TK,1706325685
164,udachny,66.4167,112.4,-38.79,100,49,1.52,RU,1706325686
165,badger,64.8,-147.5333,-36.07,64,20,1.54,US,1706325686
166,wailua homesteads,22.0669,-159.378,26.44,63,0,6.17,US,1706325686
167,huron,41.1501,-82.5499,5.38,97,100,1.45,US,1706325687
168,el calafate,-50.3408,-72.2768,9.18,72,73,7.01,AR,1706325687
169,myslakowice,50.8412,15.7789,3.89,81,93,7.15,PL,1706325688
170,inirida,3.8653,-67.9239,26.57,60,20,0.9,CO,1706325688
171,barcelos,41.5388,-8.6151,14.27,67,100,2.35,PT,1706325689
172,iskateley,67.6803,53.1512,-11.1,97,92,2.68,RU,1706325690
173,longyearbyen,78.2186,15.6401,-1.09,64,20,8.23,SJ,1706325690
174,chiang khong,20.2613,100.4046,23.17,61,17,0.14,TH,1706325691
175,asau,46.4333,26.4,-4.29,91,100,1.93,RO,1706325691
176,kamyzyak,46.11,48.0736,-3.01,100,100,2.0,RU,1706325672
177,berdigestyakh,62.0989,126.6992,-29.0,96,100,3.4,RU,1706325692
178,parras de la fuente,25.4167,-102.1833,15.41,27,1,2.5,MX,1706325692
179,gadzhiyevo,69.2551,33.3362,-5.6,92,100,7.43,RU,1706325693
180,red chute,32.556,-93.6132,14.03,94,20,6.17,US,1706325693
181,qaqortoq,60.7167,-46.0333,-26.67,75,5,2.9,GL,1706325693
182,mvomero,-6.25,38.6667,23.27,98,100,1.03,TZ,1706325693
183,uray,60.1247,64.7758,-18.4,99,99,1.34,RU,1706325694
184,pedregal,8.3667,-82.4333,28.44,84,40,4.92,PA,1706325694
185,sarakhs,36.5449,61.1577,8.51,83,97,2.87,IR,1706325695
186,dolores,-36.3132,-57.6792,19.98,83,22,4.51,AR,1706325695
187,kailua-kona,19.6406,-155.9956,26.98,70,20,6.17,US,1706325667
188,tulun,54.5611,100.5792,-17.95,90,29,0.7,RU,1706325696
189,kijang,35.2442,129.2139,4.85,39,3,1.24,KR,1706325696
190,dwarka,22.2394,68.9678,20.24,54,54,4.79,IN,1706325696
191,luanda,-8.8368,13.2343,27.0,84,75,1.54,AO,1706325642
192,cidreira,-30.1811,-50.2056,22.06,68,74,5.39,BR,1706325697
193,yuzhno-kurilsk,44.0306,145.8556,-2.01,85,93,10.2,RU,1706325697
194,saudarkrokur,65.7461,-19.6394,-5.21,83,100,3.59,IS,1706325698
195,borogontsy,62.6683,131.1683,-22.91,93,100,2.18,RU,1706325699
196,conceicao da barra,-18.5933,-39.7322,24.34,98,100,0.75,BR,1706325699
197,keflavik,64.0049,-22.5624,-1.05,93,75,15.43,IS,1706325700
198,ambert,45.55,3.75,7.05,91,100,1.29,FR,1706325701
199,ouadda,8.0777,22.4007,18.14,25,19,3.28,CF,1706325701
200,puerto deseado,-47.7503,-65.8938,22.96,37,8,11.48,AR,1706325685
201,san antonio de pale,-1.4014,5.6325,27.18,81,14,1.96,GQ,1706325702
202,waingapu,-9.6567,120.2641,28.8,74,100,5.08,ID,1706325702
203,watertown,42.3709,-71.1828,4.75,92,100,4.63,US,1706325702
204,remire-montjoly,4.9167,-52.2667,27.02,78,75,4.12,GF,1706325703
205,natal,-5.795,-35.2094,28.36,78,20,2.57,BR,1706325551
206,sibolga,1.7427,98.7792,28.86,73,96,0.5,ID,1706325703
207,argo,37.6333,22.7333,5.99,70,0,1.32,GR,1706325703
208,carutapera,-1.195,-46.02,24.84,94,100,2.71,BR,1706325704
209,pervomaysk,48.0443,30.8507,-0.49,94,99,3.88,UA,1706325704
210,dese,11.1333,39.6333,12.12,70,94,0.76,ET,1706325704
211,grand-bassam,5.2118,-3.7388,26.98,90,6,2.11,CI,1706325705
212,port alfred,-33.5906,26.891,20.1,94,100,2.24,ZA,1706325705
213,chipata,-13.6333,32.65,16.51,88,49,1.85,ZM,1706325706
214,gizo,-8.103,156.8419,29.93,66,95,2.58,SB,1706325706
215,sandnessjoen,66.0217,12.6316,2.29,87,60,12.35,NO,1706325706
216,ati,13.2154,18.3353,16.73,23,100,5.66,TD,1706325707
217,at taj,24.2049,23.2857,8.41,64,1,2.77,LY,1706325707
218,cockburn town,21.4612,-71.1419,25.33,78,8,11.01,TC,1706325707
219,malmberget,67.1753,20.6549,-7.69,93,100,1.03,SE,1706325707
220,rio de janeiro,-22.9028,-43.2075,23.98,88,75,3.6,BR,1706325198
221,labasa,-16.4167,179.3833,28.71,69,100,0.62,FJ,1706325708
222,yilan,24.757,121.753,13.92,90,100,1.03,TW,1706325708
223,puerto baquerizo moreno,-0.9,-89.6,25.54,89,31,4.1,EC,1706325709
224,paita,-5.0892,-81.1144,23.57,84,63,4.32,PE,1706325709
225,brigantine,39.4101,-74.3646,7.89,99,100,0.45,US,1706325709
226,komusan il-tong,42.1092,129.7,-2.62,47,4,1.88,KP,1706325710
227,enewetak,11.3474,162.3373,26.12,61,98,3.98,MH,1706325674
228,vesele,47.0148,34.915,0.51,85,100,1.72,UA,1706325710
229,nova friburgo,-22.2819,-42.5311,16.98,97,67,1.14,BR,1706325417
230,nar'yan-mar,67.6713,53.087,-11.05,97,91,2.68,RU,1706325711
231,citrus springs,28.9975,-82.4707,21.12,80,40,0.0,US,1706325711
232,gunjur,13.2019,-16.7339,23.04,40,2,2.57,GM,1706325711
233,palikir - national government center,6.9248,158.1611,29.47,66,100,5.14,FM,1706325712
234,carnarvon,-24.8667,113.6333,31.59,37,0,3.22,AU,1706325713
235,kerikeri,-35.2268,173.9474,24.58,53,100,3.61,NZ,1706325713
236,cileunyi,-6.9389,107.7528,24.42,86,39,2.39,ID,1706325713
237,paka,4.6374,103.4368,27.96,83,40,3.6,MY,1706325714
238,port lincoln,-34.7333,135.8667,20.2,54,0,6.36,AU,1706325714
239,melfort,52.8667,-104.6177,-7.93,86,6,4.12,CA,1706325715
240,afaahiti,-17.75,-149.2833,27.93,76,58,3.79,PF,1706325715
241,thunder bay,48.4001,-89.3168,1.99,86,100,2.57,CA,1706325599
242,ponoka,52.6768,-113.5815,-7.84,89,20,2.99,CA,1706325424
243,floro,61.5996,5.0328,6.98,87,100,11.83,NO,1706325716
244,xining,36.6167,101.7667,-7.86,33,2,0.77,CN,1706325716
245,papao,-17.75,-149.55,28.82,76,58,0.7,PF,1706325717
246,olonkinbyen,70.9221,-8.7187,-0.64,76,99,11.78,SJ,1706325717
247,bubaque,11.2833,-15.8333,25.81,69,3,1.39,GW,1706325717
248,margaret river,-33.95,115.0667,22.08,49,0,3.13,AU,1706325718
249,veraval,20.9,70.3667,20.74,39,100,5.78,IN,1706325718
250,hoopstad,-27.8327,25.9083,23.55,32,81,2.64,ZA,1706325718
251,asa,58.0167,14.6,0.71,78,81,7.23,SE,1706325718
252,emerald,-23.5333,148.1667,34.08,53,100,4.12,AU,1706325719
253,hirara,24.8,125.2833,18.92,77,75,5.66,JP,1706325720
254,balabac,7.9868,117.0645,27.69,73,100,10.3,PH,1706325720
255,pierre,44.3683,-100.351,-0.4,90,0,4.12,US,1706325720
256,puloypuloy,6.6352,124.096,29.41,59,100,3.09,PH,1706325721
257,nemuro,43.3236,145.575,-0.34,72,31,8.37,JP,1706325721
258,santa ana,33.7456,-117.8678,19.82,56,20,1.54,US,1706325721
259,velikiye luki,56.34,30.5452,-6.69,98,100,1.13,RU,1706325721
260,tromso,69.6496,18.957,-1.99,86,100,14.4,NO,1706325722
261,lisakovsk,52.5369,62.4936,-19.84,98,84,2.26,KZ,1706325722
262,altay,47.8667,88.1167,-13.5,56,39,2.44,CN,1706325723
263,anadyr,64.75,177.4833,-30.72,76,0,4.0,RU,1706325723
264,lonar,19.9833,76.5333,19.23,33,97,1.83,IN,1706325723
265,el jadid,33.2549,-8.506,14.11,82,21,2.87,MA,1706325724
266,port blair,11.6667,92.75,25.02,94,100,2.06,IN,1706325724
267,vallenar,-28.5708,-70.7581,21.44,57,0,0.47,CL,1706325724
268,mar del plata,-38.0023,-57.5575,21.64,90,0,9.39,AR,1706325679
269,chinde,26.8418,88.0763,10.99,42,36,0.97,NP,1706325725
270,alice springs,-23.7,133.8833,33.75,20,40,5.66,AU,1706325725
271,eldorado at santa fe,35.5264,-105.9347,2.68,87,75,2.06,US,1706325725
272,zaghouan,36.4029,10.1429,14.92,70,21,6.99,TN,1706325726
273,taltal,-25.4,-70.4833,20.12,84,34,1.47,CL,1706325726
274,haapavesi,64.1333,25.3667,-8.6,90,100,3.13,FI,1706325726
275,montepuez,-13.1256,38.9997,18.32,97,40,1.45,MZ,1706325727
276,howard springs,-12.497,131.047,29.95,86,100,5.44,AU,1706325727
277,luena,-11.7833,19.9167,19.1,94,100,1.54,AO,1706325727
278,ilulissat,69.2167,-51.1,-19.99,50,75,5.14,GL,1706325727
279,east london,-33.0153,27.9116,18.52,94,75,5.66,ZA,1706325728
280,mogocha,53.7333,119.7667,-15.53,81,100,1.1,RU,1706325728
281,kuala terengganu,5.3302,103.1408,27.97,83,40,2.57,MY,1706325728
282,beyneu,45.3167,55.2,-4.64,76,100,7.3,KZ,1706325729
283,turabah,21.2141,41.6331,12.6,79,100,3.04,SA,1706325729
284,nishinoomote,30.7333,131.0,13.31,43,20,7.72,JP,1706325729
285,hammerfest,70.6634,23.6821,-5.75,73,100,5.66,NO,1706325730
286,la palma,33.8464,-118.0467,19.67,62,0,2.57,US,1706325489
287,zakynthos,37.7914,20.8953,7.58,59,0,1.82,GR,1706325730
288,sal rei,16.1833,-22.9167,22.77,80,96,4.18,CV,1706325731
289,nova xavantina,-14.6667,-52.35,23.82,82,41,0.31,BR,1706325731
290,takoradi,4.8845,-1.7554,26.25,85,2,1.37,GH,1706325341
291,alofi,-19.0595,-169.9187,27.57,82,73,8.38,NU,1706325732
292,alice town,25.7167,-79.3,24.25,83,100,8.41,BS,1706325732
293,smirnykh,49.75,142.8333,-5.45,80,100,3.87,RU,1706325733
294,kolonia,50.9333,6.95,3.79,82,0,1.54,DE,1706325733
295,grand falls-windsor,48.9332,-55.6649,-5.83,76,100,0.45,CA,1706325734
296,kapuskasing,49.4169,-82.4331,-1.95,93,100,3.09,CA,1706325734
297,manggar,-2.8833,108.2667,29.91,68,80,4.69,ID,1706325735
298,kittila,67.6647,24.8936,-5.77,93,100,5.66,FI,1706325735
299,da nang,16.0678,108.2208,20.99,78,75,2.06,VN,1706325735
300,susuman,62.7833,148.1667,-38.34,99,86,0.45,RU,1706325735
301,matias barbosa,-21.8692,-43.3194,18.07,98,78,1.59,BR,1706325736
302,birjand,32.8663,59.2211,14.26,33,75,2.06,IR,1706325736
303,elele,5.1009,6.8141,22.89,64,96,1.05,NG,1706325737
304,tarfaya,27.9358,-12.9218,18.71,42,3,4.61,MA,1706325737
305,brookings,44.3114,-96.7984,-2.57,100,100,4.12,US,1706325737
306,tazovsky,67.4667,78.7,-17.13,96,100,3.11,RU,1706325738
307,jiagedaqi,50.4167,124.1167,-12.93,73,99,0.97,CN,1706325738
308,kingston,17.997,-76.7936,25.53,90,20,4.12,JM,1706325580
309,arno,60.1167,18.6333,0.44,99,100,2.33,SE,1706325739
310,clinton,42.587,-82.9199,3.45,93,100,0.0,US,1706325573
311,al 'amarah,31.8406,47.1396,12.75,88,41,2.74,IQ,1706325740
312,maceio,-9.6658,-35.7353,26.69,94,0,2.06,BR,1706325740
313,chabahar,25.2919,60.643,22.39,66,100,4.85,IR,1706325740
314,abu al matamir,30.9102,30.1744,12.99,68,96,3.55,EG,1706325741
315,dunedin,-45.8742,170.5036,21.67,36,37,6.28,NZ,1706325741
316,nedelino,41.45,25.0833,0.74,63,32,1.71,BG,1706325741
317,neiafu,-18.65,-173.9833,29.38,79,75,6.17,TO,1706325742
318,howrah,22.5892,88.3103,17.0,67,40,2.06,IN,1706325742
319,polyarnyy,69.1989,33.4478,-5.36,92,100,7.94,RU,1706325743
320,pisco,-13.7,-76.2167,24.03,78,0,5.66,PE,1706325743
321,armagh,54.35,-6.6667,7.08,84,100,7.82,GB,1706325744
322,nuku'alofa,-21.1333,-175.2,29.19,74,20,2.06,TO,1706325744
323,oakdale,44.963,-92.9649,2.86,90,100,0.45,US,1706325744
324,al muwayh,22.4333,41.7583,10.32,79,76,4.01,SA,1706325745
325,prince rupert,54.3161,-130.3201,8.83,93,100,14.92,CA,1706325745
326,arraial do cabo,-22.9661,-42.0278,23.6,89,33,8.31,BR,1706325747
327,antofagasta,-23.65,-70.4,21.6,79,36,2.35,CL,1706325747
328,huilong,31.8111,121.655,5.42,45,2,2.31,CN,1706325748
329,mikuni,36.2171,136.1519,4.95,67,99,2.2,JP,1706325749
330,fort st. john,56.2499,-120.8529,2.94,75,75,5.14,CA,1706325749
331,makurdi,7.7411,8.5121,24.42,19,97,2.71,NG,1706325749
332,tolanaro,-25.0319,46.9987,24.04,73,20,3.09,MG,1706325750
333,hutchinson,38.0608,-97.9298,-0.23,100,100,3.6,US,1706325718
334,st. john's,47.5649,-52.7093,-5.02,83,75,9.26,CA,1706325750
335,belmonte,-15.8631,-38.8828,25.22,96,100,5.87,BR,1706325751
336,la ronge,55.1001,-105.2842,-4.86,93,100,2.06,CA,1706325751
337,paola,39.3599,16.0396,13.62,82,25,0.97,IT,1706325751
338,gaspe,48.8334,-64.4819,-6.05,93,75,0.0,CA,1706325484
339,port saint john's,-31.6229,29.5448,23.23,72,90,1.71,ZA,1706325752
340,kalat,29.0225,66.5916,6.18,86,46,2.55,PK,1706325752
341,thabazimbi,-24.5917,27.4116,21.08,65,95,3.54,ZA,1706325474
342,revda,56.801,59.9303,-14.66,96,100,1.76,RU,1706325613
343,manokwari,-0.8667,134.0833,28.24,74,100,4.63,ID,1706325753
344,smithers,54.7804,-127.1743,3.18,87,75,2.06,CA,1706325753
345,acapulco de juarez,16.8634,-99.8901,25.9,83,0,3.09,MX,1706325754
346,ituango,7.1712,-75.764,17.85,97,59,0.29,CO,1706325754
347,dryden,49.7833,-92.7503,-2.84,100,100,6.17,CA,1706325754
348,champerico,14.3,-91.9167,27.25,72,0,1.97,GT,1706325755
349,peace river,56.2501,-117.286,-2.83,93,75,2.06,CA,1706325755
350,rocha,-34.4833,-54.3333,16.59,93,0,2.48,UY,1706325686
351,hassi messaoud,31.6804,6.0729,5.92,70,0,2.06,DZ,1706325756
352,namibe,-15.1961,12.1522,24.66,81,6,2.3,AO,1706325757
353,tinajo,29.0788,-13.7081,16.49,88,0,3.09,ES,1706325758
354,oum hadjer,13.2954,19.6966,16.59,25,60,4.52,TD,1706325758
355,borkum,53.5809,6.6915,5.97,86,11,7.9,DE,1706325758
356,pokachi,61.7198,75.3683,-13.39,93,99,2.3,RU,1706325759
357,bikenibeu village,1.3673,173.1241,26.98,89,75,6.69,KI,1706325759
358,villapinzon,5.2162,-73.5949,7.07,83,15,0.44,CO,1706325759
359,natitingou,10.3042,1.3796,20.72,24,16,4.14,BJ,1706325760
360,novyy urengoy,66.0833,76.6333,-14.68,95,100,3.27,RU,1706325760
361,kovdor,67.5662,30.4758,-6.84,86,100,5.45,RU,1706325760
362,tura,25.5198,90.2201,18.22,34,1,0.99,IN,1706325761
363,kalmunai,7.4167,81.8167,25.79,78,54,4.1,LK,1706325761
364,la rinconada,37.4873,-5.9826,13.52,88,100,0.51,ES,1706325761
365,touros,-5.1989,-35.4608,27.44,78,95,4.47,BR,1706325762
366,medina,24.4686,39.6142,15.24,55,0,3.09,SA,1706325762
367,ghat,24.9647,10.1728,10.93,40,81,2.27,LY,1706325762
368,ulety,51.3572,112.4849,-12.07,63,41,2.01,RU,1706325763
369,betare oya,5.6,14.0833,18.82,30,6,2.36,CM,1706325763
370,sitka,57.0531,-135.33,7.94,81,100,6.17,US,1706325763
371,oriximina,-1.7656,-55.8661,25.51,83,97,0.98,BR,1706325763
372,la sarre,48.8002,-79.1996,-1.64,96,100,1.24,CA,1706325764
373,ambon,-3.6954,128.1814,29.84,68,71,7.6,ID,1706325764
374,mount isa,-20.7333,139.5,31.87,58,100,5.66,AU,1706325765
375,ak'ordat,15.5486,37.8867,17.8,77,94,1.92,ER,1706325765
376,ciudad lazaro cardenas,17.9583,-102.2,23.45,82,0,1.36,MX,1706325765
377,hun,29.1268,15.9477,10.44,88,0,2.68,LY,1706325766
378,piti village,13.4626,144.6933,29.49,73,100,7.72,GU,1706325766
379,queenstown,-31.8976,26.8753,22.65,43,100,4.77,ZA,1706325766
380,buka,40.8108,69.1986,-0.51,85,29,1.88,UZ,1706325766
381,baiti,13.745,-14.7482,24.43,13,0,5.12,SN,1706325767
382,san jose,37.3394,-121.895,14.43,76,75,0.45,US,1706325613
383,gilgit,35.9221,74.3087,2.52,62,93,1.2,PK,1706325767
384,quirihue,-36.2833,-72.5333,13.5,96,89,1.62,CL,1706325767
385,praia da vitoria,38.7333,-27.0667,17.09,100,40,7.14,PT,1706325768
386,alaghsas,17.0187,8.0168,14.75,27,0,7.94,NE,1706325768
387,souillac,-20.5167,57.5167,27.21,83,75,3.09,MU,1706325768
388,razole,16.4833,81.8333,23.87,80,39,2.73,IN,1706325768
389,kralendijk,12.15,-68.2667,25.99,83,20,5.66,BQ,1706325769
390,salavan,15.7167,106.4167,22.7,63,100,0.97,LA,1706325769
391,wynyard,-41.0,145.7167,15.13,80,82,7.23,AU,1706325769
392,laghouat,33.8,2.8651,12.4,32,0,1.34,DZ,1706325770
393,port moresby,-9.4431,147.1797,32.68,55,40,7.72,PG,1706325770
394,khandyga,62.6667,135.6,-23.78,85,100,1.44,RU,1706325770
395,al ghayzah,16.2079,52.176,22.28,70,15,2.62,YE,1706325770
396,lewistown,40.5992,-77.5714,12.42,87,100,0.0,US,1706325771
397,angaur state,6.906,134.13,25.29,95,100,12.46,PW,1706325771
398,gurupi,-11.7292,-49.0686,23.55,94,100,2.71,BR,1706325771
399,klaksvik,62.2266,-6.589,3.51,95,100,10.78,FO,1706325772
400,nobres,-14.7203,-56.3275,23.26,52,0,0.97,BR,1706325772
401,tafresh,34.692,50.013,1.39,96,100,1.93,IR,1706325615
402,aasiaat,68.7098,-52.8699,-28.05,99,100,2.82,GL,1706325772
403,poronaysk,49.2167,143.1167,-4.79,82,100,6.92,RU,1706325773
404,kirensk,57.7853,108.1119,-27.8,95,45,2.24,RU,1706325773
405,tralee,52.2704,-9.7026,7.06,88,100,4.01,IE,1706325773
406,hoemul-li,41.4339,129.67,-1.46,63,9,1.33,KP,1706325774
407,ndele,8.4109,20.6473,19.93,24,97,3.07,CF,1706325774
408,sibi,29.5448,67.8764,12.87,23,51,0.68,PK,1706325774
409,aykhal,66.0,111.5,-31.68,100,14,2.02,RU,1706325774
410,lanzhou,36.0564,103.7922,-4.02,37,0,0.39,CN,1706325775
411,gus'-khrustal'nyy,55.6111,40.6519,-5.21,97,100,1.43,RU,1706325775
412,el granada,37.5027,-122.4694,15.18,80,0,2.57,US,1706325613
413,masvingo,-20.0637,30.8277,14.98,78,62,1.24,ZW,1706325776
414,sidney,-33.8679,151.2073,24.06,76,100,2.24,AU,1706325494
415,petrovka,53.0503,103.1,-19.7,96,26,1.24,RU,1706325776
416,pavlogradka,54.2024,73.5592,-16.49,97,56,4.34,RU,1706325777
417,san jose de guanipa,8.8872,-64.1651,24.46,67,12,6.13,VE,1706325777
418,mata-utu,-13.2816,-176.1745,27.84,81,100,6.4,WF,1706325777
419,sao jose da coroa grande,-8.8978,-35.1478,26.5,84,100,4.52,BR,1706325777
420,arhribs,36.7936,4.3116,14.05,46,43,2.18,DZ,1706325778
421,galappo,-4.2667,35.85,16.72,98,98,1.6,TZ,1706325778
422,magadan,59.5667,150.8,-19.15,75,100,2.57,RU,1706325779
423,naliya,23.2667,68.8333,17.76,45,71,4.49,IN,1706325779
424,kobarid,46.2481,13.5772,7.05,76,1,2.83,SI,1706325779
425,charleston,32.7766,-79.9309,19.09,96,100,2.06,US,1706325414
426,yashkul',46.1711,45.3435,-1.2,95,100,2.71,RU,1706325780
427,raja,8.4596,25.678,17.34,27,23,2.41,SS,1706325780
428,gbarnga,6.9956,-9.4722,19.16,84,4,0.43,LR,1706325780
429,tallahassee,30.4383,-84.2807,19.36,94,100,2.06,US,1706325781
430,kakunodatemachi,39.5833,140.5667,3.22,81,99,5.09,JP,1706325781
431,bandarbeyla,9.4942,50.8122,24.75,89,33,2.49,SO,1706325781
432,sandpoint,48.2766,-116.5533,3.16,95,0,0.0,US,1706325781
433,calabozo,8.9242,-67.4293,27.34,52,59,2.99,VE,1706325645
434,al jahra',29.3375,47.6581,14.79,87,0,4.38,KW,1706325782
435,hovd,48.0056,91.6419,-21.43,85,8,0.29,MN,1706325782
436,qarauyl,48.9451,79.255,-11.86,85,75,4.9,KZ,1706325783
437,boyolangu,-8.1181,111.8935,29.21,73,39,1.41,ID,1706325783
438,gazli,40.1333,63.45,-1.23,70,86,6.7,UZ,1706325784
439,lethbridge,49.7,-112.8186,4.06,65,20,10.8,CA,1706325784
440,broken hill,-31.95,141.4333,25.01,23,85,5.44,AU,1706325784
441,nagqu,31.5,92.0,-14.31,62,95,1.5,CN,1706325785
442,sur,22.5667,59.5289,20.09,76,77,4.94,OM,1706325785
443,yarmouth,41.7057,-70.2286,5.08,97,100,4.47,US,1706325785
444,enterprise,36.0252,-115.2419,12.12,36,75,1.54,US,1706325786
445,kayangel,8.0823,134.7173,27.29,82,100,11.37,PW,1706325786
446,midvagur,62.0511,-7.1939,3.46,93,75,6.17,FO,1706325786
447,lompoc,34.6391,-120.4579,18.21,79,0,1.54,US,1706325786
448,leh,34.1667,77.5833,-8.6,67,26,1.39,IN,1706325787
449,balezino,57.9796,53.0106,-9.74,96,100,2.55,RU,1706325787
450,port macquarie,-31.4333,152.9167,23.27,91,100,2.44,AU,1706325557
451,porbandar,21.6422,69.6093,18.99,55,38,4.12,IN,1706325788
452,mezhdurechenskiy,59.6,65.9333,-16.72,98,99,0.5,RU,1706325788
453,zambezi,-13.5432,23.1047,17.82,78,96,0.97,ZM,1706325789
454,yangirabot,40.0254,65.961,1.59,78,100,4.46,UZ,1706325789
455,cuyo,10.8525,121.0086,25.63,75,92,12.67,PH,1706325789
456,lata,40.1629,-8.3327,9.4,71,100,1.88,PT,1706325789
457,haiku-pauwela,20.9219,-156.3051,24.47,83,75,7.72,US,1706325790
458,princeville,45.7668,-61.2985,-2.05,92,75,2.57,CA,1706325790
459,epworth,-17.89,31.1475,13.19,93,35,1.49,ZW,1706325790
460,loughrea,53.1969,-8.5669,6.52,83,100,5.49,IE,1706325645
461,olinda,-8.0089,-34.8553,27.85,83,40,2.57,BR,1706325791
462,nago,26.5881,127.9761,18.24,61,89,4.62,JP,1706325791
463,sabang,5.8933,95.3214,27.55,80,95,8.03,ID,1706325791
464,usogorsk,63.4106,48.6872,-11.3,98,92,1.34,RU,1706325792
465,lodja,-3.4833,23.4333,21.61,91,99,0.99,CD,1706325792
466,rumoi,43.9344,141.6428,-0.41,80,100,3.85,JP,1706325793
467,molina,-35.1167,-71.2833,20.85,68,60,2.57,CL,1706325793
468,aswan,24.0934,32.907,11.45,50,31,4.07,EG,1706325793
469,saint-pierre,-21.3393,55.4781,25.82,83,75,4.12,RE,1706325793
470,marysville,48.0518,-122.1771,10.2,87,100,5.66,US,1706325736
471,porto novo,6.4965,2.6036,24.9,51,100,1.91,BJ,1706325794
472,coquimbo,-29.9533,-71.3436,17.85,88,75,2.57,CL,1706325794
473,maesteg,51.6093,-3.6582,7.17,81,100,3.83,GB,1706325795
474,minas de marcona,-15.2119,-75.1103,19.24,81,24,4.38,PE,1706325795
475,heihe,50.2441,127.4902,-19.75,92,73,1.24,CN,1706325795
476,funafuti,-8.5243,179.1942,28.47,80,97,8.63,TV,1706325796
477,aban,56.67,96.06,-16.69,95,94,2.78,RU,1706325796
478,bardai,11.65,7.2333,14.6,27,3,6.36,NG,1706325796
479,ormara,25.2088,64.6357,21.99,55,66,4.13,PK,1706325796
480,figuig (centre),32.1089,-1.2286,9.38,36,0,0.65,MA,1706325797
481,labrador city,52.9463,-66.9114,-13.05,78,75,1.54,CA,1706325797
482,kristiansund,63.1115,7.732,8.36,53,75,7.2,NO,1706325797
483,ubari,26.5921,12.7805,10.3,48,0,2.34,LY,1706325798
484,hadibu,12.65,54.0333,24.14,79,7,3.48,YE,1706325798
485,businga,3.3333,20.8833,21.64,49,18,0.98,CD,1706325798
486,bac lieu,9.285,105.7244,28.5,54,12,10.24,VN,1706325798
487,al majaridah,19.1236,41.9111,21.55,85,100,2.11,SA,1706325799
488,salmon arm,50.6998,-119.3024,3.62,87,97,1.03,CA,1706325799
489,jincheng,35.5022,112.8328,-1.93,42,0,4.7,CN,1706325799
490,eyl,7.9803,49.8164,24.19,92,19,3.12,SO,1706325800
491,salalah,17.0151,54.0924,25.05,65,75,3.6,OM,1706325800
492,mermoz boabab,14.7065,-17.4758,26.31,83,5,3.09,SN,1706325800
493,freetown,8.484,-13.2299,24.84,88,8,1.54,SL,1706325801
494,weiser,44.251,-116.9693,3.69,90,100,1.76,US,1706325801
495,bereket,39.2446,55.5154,1.21,80,46,5.01,TM,1706325801
496,al kharijah,25.4514,30.5464,9.85,63,6,2.68,EG,1706325802
497,richmond,37.5538,-77.4603,18.14,94,75,2.57,US,1706325437
498,port lavaca,28.615,-96.6261,17.03,96,100,3.6,US,1706325802
499,chake chake,-5.2459,39.7666,25.6,89,100,1.77,TZ,1706325802
500,wanning,18.8003,110.3967,19.57,85,100,2.26,CN,1706325803
501,yen vinh,18.6667,105.6667,15.23,82,100,2.45,VN,1706325803
502,ulanhot,46.0833,122.0833,-12.06,63,4,1.68,CN,1706325803
503,makokou,0.5738,12.8642,22.77,74,59,1.16,GA,1706325804
504,port hedland,-20.3167,118.5667,31.03,58,100,7.2,AU,1706325804
505,holualoa,19.6228,-155.9522,24.91,70,20,6.17,US,1706325697
506,kikwit,-5.041,18.8162,21.52,96,48,0.83,CD,1706325804
507,santa elena de uairen,4.6167,-61.1333,22.65,60,96,2.21,VE,1706325805
508,sittwe,20.15,92.9,20.16,62,11,2.67,MM,1706325805
509,batikent,39.9683,32.7308,-0.34,86,40,3.6,TR,1706325806
510,taseyevo,57.2169,94.8978,-19.81,100,95,0.89,RU,1706325806
511,hilo,19.7297,-155.09,26.16,78,75,2.57,US,1706325518
512,maintirano,-18.0667,44.0167,25.71,77,32,1.55,MG,1706325806
513,limulunga,-15.0969,23.1376,17.2,69,19,2.14,ZM,1706325807
514,tokar,18.4254,37.729,20.84,58,98,4.38,SD,1706325807
515,kyzyl-suu,42.3414,78.0056,-5.38,67,42,3.77,KG,1706325807
516,caluula,11.9661,50.7569,25.24,74,42,3.49,SO,1706325808
517,anonang,11.0,124.0333,26.56,59,100,7.26,PH,1706325808
518,weligama,5.9667,80.4167,25.58,77,50,1.62,LK,1706325809
519,daru,-9.0763,143.2092,32.89,54,70,4.89,PG,1706325809
520,crane,31.3974,-102.3501,11.88,54,53,5.91,US,1706325809
521,thiruthani,13.1833,79.6333,23.77,76,89,1.94,IN,1706325809
522,tsiombe,-25.3,45.4833,21.7,80,0,4.54,MG,1706325810
523,egilsstadir,65.2653,-14.3948,-3.05,74,0,4.12,IS,1706325810
524,hithadhoo,-0.6,73.0833,28.14,67,50,6.56,MV,1706325810
525,chunskiy,56.0815,99.6342,-19.07,97,90,0.88,RU,1706325811
526,puerto san jose,13.9256,-90.8244,26.44,75,0,1.89,GT,1706325811
527,kiunga,-6.1219,141.2906,34.47,46,36,1.88,PG,1706325811
528,isabela,6.7085,121.9711,30.03,59,100,4.65,PH,1706325812
529,ebon,4.582,168.6964,28.0,76,100,5.91,MH,1706325812
530,ocos,14.5094,-92.1933,26.1,70,0,1.19,GT,1706325812
531,saint-francois,46.4154,3.9054,4.25,100,56,1.54,FR,1706325813
532,pico truncado,-46.7949,-67.9573,20.81,35,72,14.12,AR,1706325813
533,meru,0.0463,37.6559,16.26,78,100,1.22,KE,1706325814
534,zorgo,12.2489,-0.6158,18.65,23,0,4.49,BF,1706325814
535,kabalo,-6.05,26.9167,20.27,97,99,0.79,CD,1706325814
536,quepos,9.4236,-84.1652,25.76,85,58,0.88,CR,1706325814
537,shiguai,40.7058,110.2856,-11.49,57,27,1.02,CN,1706325815
538,bouake,7.6895,-5.0218,25.06,25,0,2.06,CI,1706325815
539,bairnsdale,-37.8333,147.6167,25.03,48,33,1.79,AU,1706325815
540,nizhneudinsk,54.9076,99.0276,-14.61,88,38,0.86,RU,1706325816
541,nadi,-17.8,177.4167,32.0,55,40,6.69,FJ,1706325816
542,black river,18.0264,-77.8487,24.43,85,1,1.61,JM,1706325816
543,happy valley-goose bay,53.3168,-60.3315,-14.83,72,20,3.09,CA,1706325817
544,uttar char fasson,22.2332,90.7132,18.14,54,92,4.24,BD,1706325817
545,bani walid,31.7566,13.9942,11.62,72,0,2.28,LY,1706325817
546,nema,57.5067,50.5011,-8.62,96,100,1.85,RU,1706325817
547,usinsk,65.9939,57.5281,-9.4,95,99,5.81,RU,1706325818
548,mountain home,43.133,-115.6912,3.41,82,100,1.79,US,1706325647
549,dori,14.0354,-0.0345,16.51,22,1,5.28,BF,1706325818
550,kismayo,-0.3582,42.5454,26.12,85,14,4.34,SO,1706325819
551,mahanoro,-19.9,48.8,23.1,83,98,2.56,MG,1706325819
552,la paz,-16.5,-68.15,11.99,75,75,1.03,BO,1706325688
553,labytnangi,66.6572,66.4183,-16.72,98,93,0.95,RU,1706325820
554,cafayate,-26.073,-65.9761,21.37,66,100,2.18,AR,1706325820
555,keren,15.7778,38.4581,14.72,77,98,1.02,ER,1706325820
556,isna,25.2934,32.554,11.05,55,2,2.96,EG,1706325820
557,onega,63.9061,38.1404,-12.33,100,100,1.66,RU,1706325821
558,aromashevo,56.8602,68.6375,-9.49,96,100,2.78,RU,1706325821
559,tambo,-14.8,-73.9167,5.22,91,100,1.53,PE,1706325822
560,gdansk,54.3521,18.6464,4.45,84,75,7.2,PL,1706325663
561,kinston,35.2627,-77.5816,19.16,88,75,1.54,US,1706325602
562,acarau,-2.8856,-40.12,26.9,82,87,5.05,BR,1706325823
563,baracoa,20.3467,-74.4958,23.89,81,22,4.35,CU,1706325823
564,bandar,2.05,99.75,28.63,72,95,1.53,ID,1706325823
565,severo-yeniseyskiy,60.3725,93.0408,-15.32,95,100,2.01,RU,1706325823
566,'ain deheb,34.8422,1.547,10.46,38,0,1.22,DZ,1706325824
567,nuevo casas grandes,30.4167,-107.9167,8.24,49,21,1.95,MX,1706325824
568,monteagudo,-19.8167,-63.9833,22.31,52,99,1.19,BO,1706325824
569,sisimiut,66.9395,-53.6735,-23.53,94,98,4.09,GL,1706325825
570,bagan,54.1001,77.6646,-16.56,94,67,3.79,RU,1706325825
571,nova olimpia,-14.7972,-57.2881,22.72,54,0,1.67,BR,1706325825
572,key west,24.5557,-81.7826,24.44,85,20,4.63,US,1706325719
573,niafunke,15.9322,-3.9906,16.33,23,16,5.11,ML,1706325826
574,antalaha,-14.9003,50.2788,23.91,90,86,1.88,MG,1706325826
575,senirkent,38.1044,30.5486,-0.97,85,16,2.6,TR,1706325826
576,shubarshi,48.5872,57.1869,-10.43,86,100,4.24,KZ,1706325826
577,nova sintra,14.8667,-24.7167,21.54,72,81,1.43,CV,1706325827
578,mount gambier,-37.8333,140.7667,20.66,50,63,5.92,AU,1706325827
579,roma,43.2128,-75.4557,2.27,98,100,2.57,US,1706325827
580,graham,47.0529,-122.2943,9.22,94,100,0.45,US,1706325828
581,carapicuiba,-23.5534,-46.8485,18.78,95,86,3.65,BR,1706325828
582,cannonvale,-20.2833,148.7,30.66,75,100,6.77,AU,1706325828
583,tshabong,-26.05,22.45,25.99,43,91,5.28,BW,1706325828
584,'ain el hadjar,34.7585,0.1453,10.63,32,0,4.38,DZ,1706325829
585,kandahar,31.0,65.75,10.59,75,57,3.31,AF,1706325829
586,subtanjalla,-14.0189,-75.7581,24.05,63,86,0.92,PE,1706325829
587,taulaga,-11.0553,-171.0883,29.79,68,81,4.14,AS,1706325830
588,mantua,45.1667,10.7833,4.49,31,13,1.52,IT,1706325830
589,igarka,67.4667,86.5833,-13.55,93,100,8.17,RU,1706325830
590,payakumbuh,-0.2202,100.6308,25.55,83,69,1.47,ID,1706325830
591,mogadishu,2.0371,45.3438,25.66,85,32,5.18,SO,1706325831
592,sayan,-11.1361,-77.1933,23.66,75,99,1.05,PE,1706325795
